{
"type": "FeatureCollection",
"features": [
{
"type": "Feature",
"properties": {
"name": "Paris Metro Line 6 - Precise Track",
"line": "6",
"color": "#4DC495",
"terminus_west": "Charles De Gaulle-Étoile",
"terminus_east": "Nation"
},
"geometry": {
"type": "LineString",
"coordinates": [
[2.295560256213147, 48.87474865067991],
[2.293240649947314, 48.87126214446096],
[2.290058833580487, 48.86698310944948],
[2.287580162529652, 48.863610937645674],
[2.285812444146408, 48.85744869007581],
[2.289334532778807, 48.85394260621378],
[2.293612437187803, 48.85043454901342],
[2.298930911748061, 48.848741665717824],
[2.298930911748061, 48.848741665717824],
[2.302968297817314, 48.84750708199681],
[2.309531491460945, 48.84562696674718],
[2.312812774836902, 48.84267681998372],
[2.321278562744627, 48.842102207208605],
[2.326384610792847, 48.84066322929957],
[2.330754192086216, 48.83896428071056],
[2.33285230996089, 48.834292980473194],
[2.3371351933439, 48.83290081566025],
[2.343511657749776, 48.831129548026645],
[2.350414872010464, 48.82979051369297],
[2.356121938797104, 48.8309272410005],
[2.362856399519012, 48.83321671970985],
[2.368126330413209, 48.83494772325454],
[2.372825724542572, 48.83704512015793],
[2.379911271454398, 48.84038874809587],
[2.389620014061439, 48.83904114371398],
[2.396182886452633, 48.83944542837951],
[2.400918536779803, 48.84133824913213],
[2.401289019827348, 48.84506157994489],
[2.39546199483274, 48.84737487872935]
]
}
},
{ "type": "Feature", "properties": { "name": "Charles De Gaulle-Étoile" }, "geometry": { "type": "Point", "coordinates": [2.295560256213147, 48.87474865067991] } },
{ "type": "Feature", "properties": { "name": "Kléber" }, "geometry": { "type": "Point", "coordinates": [2.293240649947314, 48.87126214446096] } },
{ "type": "Feature", "properties": { "name": "Boissière" }, "geometry": { "type": "Point", "coordinates": [2.290058833580487, 48.86698310944948] } },
{ "type": "Feature", "properties": { "name": "Trocadéro" }, "geometry": { "type": "Point", "coordinates": [2.287580162529652, 48.863610937645674] } },
{ "type": "Feature", "properties": { "name": "Passy" }, "geometry": { "type": "Point", "coordinates": [2.285812444146408, 48.85744869007581] } },
{ "type": "Feature", "properties": { "name": "Bir-Hakeim" }, "geometry": { "type": "Point", "coordinates": [2.289334532778807, 48.85394260621378] } },
{ "type": "Feature", "properties": { "name": "Dupleix" }, "geometry": { "type": "Point", "coordinates": [2.293612437187803, 48.85043454901342] } },
{ "type": "Feature", "properties": { "name": "La Motte Picquet-Grenelle" }, "geometry": { "type": "Point", "coordinates": [2.298930911748061, 48.848741665717824] } },
{ "type": "Feature", "properties": { "name": "Cambronne" }, "geometry": { "type": "Point", "coordinates": [2.302968297817314, 48.84750708199681] } },
{ "type": "Feature", "properties": { "name": "Sèvres-Lecourbe" }, "geometry": { "type": "Point", "coordinates": [2.309531491460945, 48.84562696674718] } },
{ "type": "Feature", "properties": { "name": "Pasteur" }, "geometry": { "type": "Point", "coordinates": [2.312812774836902, 48.84267681998372] } },
{ "type": "Feature", "properties": { "name": "Montparnasse-Bienvenüe" }, "geometry": { "type": "Point", "coordinates": [2.321278562744627, 48.842102207208605] } },
{ "type": "Feature", "properties": { "name": "Edgar Quinet" }, "geometry": { "type": "Point", "coordinates": [2.326384610792847, 48.84066322929957] } },
{ "type": "Feature", "properties": { "name": "Raspail" }, "geometry": { "type": "Point", "coordinates": [2.330754192086216, 48.83896428071056] } },
{ "type": "Feature", "properties": { "name": "Denfert-Rochereau" }, "geometry": { "type": "Point", "coordinates": [2.33285230996089, 48.834292980473194] } },
{ "type": "Feature", "properties": { "name": "Saint-Jacques" }, "geometry": { "type": "Point", "coordinates": [2.3371351933439, 48.83290081566025] } },
{ "type": "Feature", "properties": { "name": "Glacière" }, "geometry": { "type": "Point", "coordinates": [2.343511657749776, 48.831129548026645] } },
{ "type": "Feature", "properties": { "name": "Corvisart" }, "geometry": { "type": "Point", "coordinates": [2.350414872010464, 48.82979051369297] } },
{ "type": "Feature", "properties": { "name": "Place d'Italie" }, "geometry": { "type": "Point", "coordinates": [2.356121938797104, 48.8309272410005] } },
{ "type": "Feature", "properties": { "name": "Nationale" }, "geometry": { "type": "Point", "coordinates": [2.362856399519012, 48.83321671970985] } },
{ "type": "Feature", "properties": { "name": "Chevaleret" }, "geometry": { "type": "Point", "coordinates": [2.368126330413209, 48.83494772325454] } },
{ "type": "Feature", "properties": { "name": "Quai de la Gare" }, "geometry": { "type": "Point", "coordinates": [2.372825724542572, 48.83704512015793] } },
{ "type": "Feature", "properties": { "name": "Bercy" }, "geometry": { "type": "Point", "coordinates": [2.379911271454398, 48.84038874809587] } },
{ "type": "Feature", "properties": { "name": "Dugommier" }, "geometry": { "type": "Point", "coordinates": [2.389620014061439, 48.83904114371398] } },
{ "type": "Feature", "properties": { "name": "Daumesnil" }, "geometry": { "type": "Point", "coordinates": [2.396182886452633, 48.83944542837951] } },
{ "type": "Feature", "properties": { "name": "Bel-Air" }, "geometry": { "type": "Point", "coordinates": [2.400918536779803, 48.84133824913213] } },
{ "type": "Feature", "properties": { "name": "Picpus" }, "geometry": { "type": "Point", "coordinates": [2.401289019827348, 48.84506157994489] } },
{ "type": "Feature", "properties": { "name": "Nation" }, "geometry": { "type": "Point", "coordinates": [2.39546199483274, 48.84737487872935] } }
]
}